City,Cloudiness,Country,Date,Humidity,Lat,Lng,Max Temp (F),Wind Speed
butaritari,29,KI,1635628319,72,3.0707,172.7902,82.44,6.11
bluff,93,NZ,1635628319,85,-46.6,168.3333,52.92,22.17
busselton,92,AU,1635628047,90,-33.65,115.3333,43.05,5.73
vaini,9,TO,1635628320,77,-21.2,-175.2,75.22,16.24
tynda,26,RU,1635628320,64,55.1667,124.7167,17.04,2.24
hilo,1,US,1635628051,73,19.7297,-155.09,80.33,8.05
punta arenas,0,CL,1635628316,40,-53.15,-70.9167,53.71,17.27
den helder,90,NL,1635628321,83,52.9599,4.7593,55.38,10.0
leningradskiy,99,RU,1635628321,96,69.3833,178.4167,-1.48,6.33
mahina,75,PF,1635628322,61,-17.5065,-149.489,82.17,8.05
rikitea,73,PF,1635628323,85,-23.1203,-134.9692,75.02,21.88
puerto ayora,94,EC,1635628069,81,-0.7393,-90.3518,78.76,9.22
alihe,0,CN,1635628323,50,50.5667,123.7167,25.02,1.66
mataura,100,NZ,1635628323,57,-46.1927,168.8643,57.43,12.01
bredasdorp,67,ZA,1635628324,96,-34.5322,20.0403,58.28,4.09
ornskoldsvik,90,SE,1635628324,100,63.2909,18.7153,43.75,6.91
kapaa,20,US,1635628324,84,22.0752,-159.319,82.47,1.99
springbok,5,ZA,1635628325,29,-29.6643,17.8865,68.07,4.92
payakumbuh,97,ID,1635628325,97,-0.2202,100.6308,70.47,2.1
bethel,75,US,1635628177,90,41.3712,-73.414,60.37,4.61
kagalnitskaya,0,RU,1635628325,71,46.8806,40.1466,43.25,8.77
hobart,75,AU,1635628326,62,-42.8794,147.3294,56.26,4.0
semibratovo,43,RU,1635628326,93,57.3046,39.5369,44.46,9.15
moline,75,US,1635628326,67,41.5067,-90.5151,61.25,6.91
ushuaia,0,AR,1635628285,46,-54.8,-68.3,51.46,19.57
dongning,83,CN,1635628327,68,44.0622,131.1207,40.5,0.36
ahipara,100,NZ,1635628327,89,-35.1667,173.1667,62.13,8.01
pianco,63,BR,1635628256,22,-7.1981,-37.9292,93.63,8.68
faya,0,SA,1635628327,44,18.3851,42.4509,59.52,7.02
wichita falls,1,US,1635628328,23,33.9137,-98.4934,78.26,5.99
dikson,100,RU,1635628328,91,73.5069,80.5464,6.93,16.26
jamestown,90,US,1635628329,85,42.097,-79.2353,56.52,3.0
evensk,96,RU,1635628329,74,61.95,159.2333,8.69,11.16
half moon bay,90,US,1635628330,82,37.4636,-122.4286,73.2,1.99
sorland,100,NO,1635628330,90,67.667,12.6934,48.7,21.16
albany,91,US,1635628055,89,42.6001,-73.9662,58.46,3.0
new norfolk,85,AU,1635628330,57,-42.7826,147.0587,55.92,4.0
tasiilaq,88,GL,1635628331,64,65.6145,-37.6368,26.76,5.88
comodoro rivadavia,20,AR,1635628331,58,-45.8667,-67.5,51.66,6.91
krasnoselkup,100,RU,1635628332,95,65.7,82.4667,17.19,10.65
valparai,100,IN,1635628332,91,10.3667,76.9667,62.37,4.5
gudur,100,IN,1635628332,88,14.1333,79.85,78.58,5.14
vincennes,0,FR,1635628333,92,48.85,2.4333,53.89,4.61
barrow,90,US,1635628333,79,71.2906,-156.7887,17.62,0.0
cape town,71,ZA,1635628119,77,-33.9258,18.4232,63.09,1.01
port elizabeth,4,ZA,1635628080,93,-33.918,25.5701,57.09,3.42
rivera,13,UY,1635628314,69,-30.9053,-55.5508,79.03,4.99
ostrovnoy,100,RU,1635628333,94,68.0531,39.5131,33.96,10.38
saskylakh,100,RU,1635628049,93,71.9167,114.0833,9.75,11.63
beyneu,4,KZ,1635628334,66,45.3167,55.2,49.66,3.49
portland,20,US,1635628304,40,45.5234,-122.6762,63.34,4.0
norman wells,90,CA,1635628334,93,65.282,-126.8329,19.44,4.61
solwezi,50,ZM,1635628334,37,-12.1688,26.3894,69.12,4.81
kieta,96,PG,1635628335,82,-6.2167,155.6333,80.24,4.61
atuona,4,PF,1635628335,66,-9.8,-139.0333,78.08,16.06
novyy urengoy,98,RU,1635628231,92,66.0833,76.6333,8.89,14.2
mar del plata,75,AR,1635628066,82,-38.0023,-57.5575,62.1,3.0
lavrentiya,34,RU,1635628336,79,65.5833,-171.0,12.16,6.24
port alfred,79,ZA,1635628336,86,-33.5906,26.891,64.94,6.49
souillac,25,MU,1635628336,78,-20.5167,57.5167,71.37,3.02
terrace bay,69,CA,1635628119,72,48.7834,-87.1,47.7,4.32
marawi,29,PH,1635628337,96,7.9986,124.2928,66.65,0.78
shimoda,100,JP,1635628337,74,34.6667,138.95,58.1,8.19
richards bay,70,ZA,1635628259,86,-28.783,32.0377,63.21,7.34
mandalgovi,19,MN,1635628338,78,45.7625,106.2708,27.57,7.05
kahului,20,US,1635628338,63,20.8947,-156.47,85.26,12.66
shenjiamen,15,CN,1635628338,78,29.9576,122.298,64.85,8.37
san patricio,0,US,1635628063,17,28.017,-97.5169,86.41,2.17
klaksvik,100,FO,1635628116,91,62.2266,-6.589,47.32,12.46
luderitz,9,NA,1635628339,94,-26.6481,15.1594,58.98,4.43
port blair,99,IN,1635628339,81,11.6667,92.75,80.38,2.35
catarman,96,PH,1635628340,79,12.4989,124.6377,79.41,12.48
huilong,65,CN,1635628340,79,31.8111,121.655,62.04,6.13
chimbote,52,PE,1635628180,78,-9.0853,-78.5783,66.27,9.53
cascais,100,PT,1635628264,86,38.6979,-9.4215,70.95,3.0
alto araguaia,95,BR,1635628340,62,-17.3147,-53.2153,79.81,3.98
kaitangata,100,NZ,1635628068,57,-46.2817,169.8464,58.05,5.86
hermanus,75,ZA,1635628341,85,-34.4187,19.2345,61.9,8.46
tuktoyaktuk,77,CA,1635628089,89,69.4541,-133.0374,16.95,8.72
sao jose da coroa grande,0,BR,1635628341,72,-8.8978,-35.1478,77.41,10.85
carnarvon,0,AU,1635628103,72,-24.8667,113.6333,64.47,14.97
yellowknife,95,CA,1635628303,85,62.456,-114.3525,30.56,8.01
nikolskoye,97,RU,1635628342,92,59.7035,30.7861,47.01,7.63
naze,1,JP,1635628342,78,28.3667,129.4833,67.42,7.14
khatanga,73,RU,1635628342,100,71.9667,102.5,-6.5,2.19
xiaoweizhai,100,CN,1635628342,99,26.1903,107.5125,56.84,3.24
tautira,41,PF,1635628343,76,-17.7333,-149.15,82.42,16.62
port-gentil,100,GA,1635628343,93,-0.7193,8.7815,76.59,9.62
cherskiy,100,RU,1635628098,98,68.75,161.3,-0.96,5.77
severo-kurilsk,78,RU,1635628343,86,50.6789,156.125,40.5,11.41
tupik,43,RU,1635628344,44,54.4253,119.9327,20.8,4.18
shasta lake,100,US,1635628344,95,40.6804,-122.3708,69.44,1.79
raymond terrace,90,AU,1635628344,94,-32.75,151.75,62.01,6.91
ribeira grande,100,PT,1635628345,89,38.5167,-28.7,70.74,16.37
kadoma,97,JP,1635628345,71,34.7333,135.5833,60.78,4.41
valparaiso,0,CL,1635628345,72,-33.0393,-71.6273,64.63,9.22
flin flon,99,CA,1635628346,61,54.7682,-101.865,37.17,9.89
geraldton,0,AU,1635628346,82,-28.7667,114.6,52.21,9.22
victoria,97,HK,1635628347,83,22.2855,114.1577,75.33,1.01
yafran,96,LY,1635628347,50,32.0633,12.5286,64.72,2.95
lebu,100,CL,1635628062,73,-37.6167,-73.65,55.06,15.05
thompson,90,CA,1635628347,75,55.7435,-97.8558,37.56,11.5
longyearbyen,95,SJ,1635628347,83,78.2186,15.6401,17.8,2.62
provideniya,89,RU,1635628348,80,64.3833,-173.3,13.08,10.67
east london,80,ZA,1635628348,85,-33.0153,27.9116,64.81,7.4
pingliang,100,CN,1635628348,45,35.5392,106.6861,46.69,6.29
ponta do sol,31,PT,1635628349,76,32.6667,-17.1,72.72,6.96
itarema,26,BR,1635628349,74,-2.9248,-39.9167,80.55,12.24
lompoc,1,US,1635628252,77,34.6391,-120.4579,76.14,11.5
namibe,82,AO,1635628349,72,-15.1961,12.1522,68.2,7.74
fukue,5,JP,1635628350,69,32.6881,128.8419,66.69,11.81
aklavik,40,CA,1635628350,86,68.2191,-135.0107,17.6,3.44
carballo,85,ES,1635628350,89,43.213,-8.691,62.78,9.73
hay river,16,CA,1635628351,63,60.8156,-115.7999,34.07,10.56
flinders,0,AU,1635628351,83,-34.5833,150.8552,55.8,1.01
poum,23,NC,1635628351,71,-20.2333,164.0167,75.24,4.12
canutama,78,BR,1635628352,58,-6.5339,-64.3831,87.42,3.62
isla vista,75,US,1635628352,63,34.4133,-119.861,83.3,6.91
muli,11,MV,1635628352,75,2.9167,73.5667,82.47,13.78
maryborough,97,AU,1635628353,84,-25.5333,152.7,72.03,8.95
castro,82,BR,1635628353,90,-24.7911,-50.0119,64.35,10.18
ondjiva,71,AO,1635628353,27,-17.0667,15.7333,82.29,5.79
hithadhoo,100,MV,1635628179,74,-0.6,73.0833,83.08,19.35
esna,95,EG,1635628179,24,25.2934,32.554,83.77,6.11
grand gaube,6,MU,1635628354,84,-20.0064,57.6608,71.38,1.99
kruisfontein,1,ZA,1635628235,92,-34.0033,24.7314,54.88,2.59
bozeman,90,US,1635628354,56,45.6796,-111.0386,44.71,1.01
north platte,1,US,1635628354,43,41.1239,-100.7654,64.29,11.01
corrales,1,US,1635628355,21,35.2378,-106.6067,79.34,1.99
avarua,20,CK,1635628303,60,-21.2078,-159.775,75.25,13.8
nanortalik,46,GL,1635628181,73,60.1432,-45.2371,34.38,2.89
gamba,100,GA,1635628355,91,-2.65,10.0,76.62,7.27
halifax,71,CA,1635628141,84,44.6453,-63.5724,53.1,1.99
mahebourg,25,MU,1635628356,77,-20.4081,57.7,71.26,4.88
ermelo,37,ZA,1635628356,79,-26.5333,29.9833,53.11,7.14
moron,0,AR,1635628180,51,-34.6534,-58.6198,89.02,4.0
jian,10,CN,1635628357,73,27.1172,114.9793,59.54,3.22
kodiak,90,US,1635628357,81,57.79,-152.4072,47.71,34.52
charters towers,13,AU,1635628357,76,-20.1,146.2667,75.45,7.18
vaitape,15,PF,1635628357,68,-16.5167,-151.75,78.12,16.44
amboasary,39,MG,1635628358,82,-25.0333,46.3833,66.87,5.32
port-cartier,34,CA,1635628358,67,50.0334,-66.8654,45.75,4.9
namatanai,94,PG,1635628358,77,-3.6667,152.4333,81.7,7.07
port lincoln,0,AU,1635628359,74,-34.7333,135.8667,54.59,9.44
hervey bay,99,AU,1635628090,86,-25.2986,152.8535,77.04,14.99
bengkulu,100,ID,1635628359,90,-3.8004,102.2655,75.81,4.63
pangody,100,RU,1635628211,93,65.85,74.4859,12.27,16.11
simbahan,71,PH,1635628360,76,6.3032,120.5836,82.53,5.99
srostki,98,RU,1635628360,74,52.4189,85.7022,35.28,3.18
zasova,2,CZ,1635628360,58,49.4741,18.0444,55.89,17.38
georgetown,20,MY,1635628360,92,5.4112,100.3354,77.9,0.0
kalasin,13,TH,1635628361,90,16.5,103.5,72.41,5.84
nieuw amsterdam,40,SR,1635628361,82,5.8833,-55.0833,84.02,2.3
cabo san lucas,20,MX,1635628143,61,22.8909,-109.9124,89.51,14.97
brainerd,1,US,1635628361,47,46.358,-94.2008,57.22,8.05
ngama,90,TD,1635628362,15,11.7833,17.1667,88.59,8.05
bambous virieux,32,MU,1635628194,77,-20.3428,57.7575,71.22,6.06
vadso,99,NO,1635628362,78,70.0744,29.7487,20.28,6.49
bambanglipuro,98,ID,1635628362,91,-7.95,110.2833,77.02,3.47
laguna,1,US,1635628129,70,38.421,-121.4238,75.24,1.01
katsuura,100,JP,1635628363,69,35.1333,140.3,58.1,4.16
pangnirtung,100,CA,1635628363,99,66.1451,-65.7125,33.1,8.84
katherine,40,AU,1635628364,74,-14.4667,132.2667,80.92,2.3
caudry,100,FR,1635628364,90,50.1249,3.4119,51.08,8.77
telimele,91,GN,1635628364,97,10.9167,-13.3333,69.87,1.9
simao,42,CN,1635628365,99,22.7886,100.9748,59.0,1.52
eyrarbakki,81,IS,1635628365,75,63.863,-21.1481,34.21,10.71
powell river,0,CA,1635628365,48,49.8496,-124.5361,52.09,5.08
ziguinchor,100,SN,1635628365,91,12.5833,-16.2719,73.47,3.06
codrington,3,AU,1635628366,88,-38.2667,141.9667,45.77,8.16
gorbatovka,0,RU,1635628366,100,56.2531,43.7475,42.75,4.0
hamilton,90,US,1635628367,94,39.1834,-84.5333,57.42,1.01
beringovskiy,97,RU,1635628367,97,63.05,179.3167,5.79,17.85
kirya,9,TZ,1635628367,70,-3.9167,37.4833,75.34,5.88
sheridan,90,US,1635628368,68,44.8333,-106.9173,40.66,5.01
saint-philippe,86,RE,1635628368,79,-21.3585,55.7679,71.15,3.85
sao filipe,78,CV,1635628369,75,14.8961,-24.4956,79.9,11.74
toora-khem,100,RU,1635628369,81,52.4675,96.11,28.9,2.53
rio bonito,100,BR,1635628369,91,-22.7086,-42.6097,75.11,6.31
zyryanka,100,RU,1635628369,94,65.75,150.85,0.07,6.33
seoul,25,KR,1635628370,76,37.5683,126.9778,51.24,2.35
airai,32,TL,1635628084,91,-8.9266,125.4092,61.43,1.16
kargopol,100,RU,1635628370,91,61.5071,38.9456,42.89,6.96
cidreira,28,BR,1635628371,86,-30.1811,-50.2056,68.47,22.84
rorvik,30,NO,1635628110,83,64.8621,11.2373,49.03,13.2
grand-lahou,100,CI,1635628371,86,5.1367,-5.0242,78.4,7.2
rio gallegos,2,AR,1635628287,26,-51.6226,-69.2181,59.86,8.21
qaanaaq,0,GL,1635628075,54,77.484,-69.3632,2.01,8.72
fort-shevchenko,0,KZ,1635628371,74,44.5086,50.263,50.74,7.85
harnosand,100,SE,1635628144,87,62.6323,17.9379,43.0,5.91
algarrobo,100,CO,1635628372,82,10.1869,-74.5753,83.95,4.34
lasa,100,IT,1635628229,83,46.6166,10.7002,47.14,2.55
baniachang,57,BD,1635628372,61,24.5167,91.3667,72.7,4.88
bani,22,DO,1635628372,69,18.2833,-70.3333,86.76,7.9
kalmunai,100,LK,1635628373,89,7.4167,81.8167,77.5,7.52
port hardy,63,CA,1635628373,53,50.6996,-127.4199,45.43,4.83
rawson,85,AR,1635628373,61,-43.3002,-65.1023,50.54,25.7
nikolayevka,22,RU,1635628374,96,53.1257,47.2041,42.96,8.7
mangrol,55,IN,1635628374,43,21.1167,70.1167,75.63,7.45
ajdabiya,69,LY,1635628374,68,30.7554,20.2263,68.32,6.76
bridlington,45,GB,1635628175,82,54.0831,-0.1919,47.89,14.41
ternate,95,ID,1635628375,80,0.8,127.4,79.92,4.25
saint george,1,US,1635628186,32,37.1041,-113.5841,82.87,1.99
aripuana,55,BR,1635628375,62,-9.1667,-60.6333,84.34,2.86
araouane,89,ML,1635628126,20,18.9048,-3.5265,87.64,11.52
mildura,0,AU,1635628375,62,-34.2,142.15,52.07,5.75
narsaq,92,GL,1635628339,68,60.9167,-46.05,30.42,4.85
toamasina,79,MG,1635628376,86,-18.1667,49.3833,73.06,2.62
hasaki,75,JP,1635628376,61,35.7333,140.8333,52.2,6.49
ponta delgada,75,PT,1635628376,94,37.7333,-25.6667,73.51,13.8
yeppoon,23,AU,1635628377,74,-23.1333,150.7333,74.98,3.42
tolyatti,100,RU,1635628377,90,53.5303,49.3461,44.96,10.96
pitsunda,2,GE,1635628378,57,43.1592,40.3378,56.71,5.3
lichinga,4,MZ,1635628378,61,-13.3128,35.2406,68.2,8.03
acapulco,40,MX,1635628240,74,16.8634,-99.8901,87.62,6.91
tshela,92,CD,1635628379,97,-4.9833,12.9333,74.39,2.33
haines junction,100,CA,1635628379,77,60.7522,-137.5108,35.56,6.49
vallenar,0,CL,1635628379,24,-28.5708,-70.7581,84.11,7.96
san policarpo,100,PH,1635628231,76,12.1791,125.5072,81.45,18.1
anju,100,KP,1635628380,77,39.6178,125.6647,52.61,2.77
nosy varika,94,MG,1635628380,86,-20.5833,48.5333,71.76,5.88
sovetskiy,70,RU,1635628381,98,61.3614,63.5842,15.3,3.24
perth,0,AU,1635628381,91,-31.9333,115.8333,52.79,0.0
la ronge,100,CA,1635628382,63,55.1001,-105.2842,36.81,12.59
kemijarvi,100,FI,1635628382,98,66.7131,27.4306,41.32,9.44
kavaratti,77,IN,1635628382,72,10.5669,72.642,81.77,0.83
nsoko,100,SZ,1635628383,69,-27.0333,31.95,64.58,3.44
bima,94,ID,1635628383,91,-8.4667,118.7167,77.36,2.01
tiksi,96,RU,1635628383,95,71.6872,128.8694,-0.63,8.37
kautokeino,100,NO,1635628384,98,69.0125,23.0412,28.8,7.31
yantikovo,100,RU,1635628384,92,55.8216,47.9104,45.32,9.71
comarapa,87,BO,1635628385,63,-17.9,-64.4833,67.8,7.29
aykhal,100,RU,1635628385,97,66.0,111.5,16.11,6.87
chuy,84,UY,1635628385,80,-33.6971,-53.4616,69.15,13.71
starosubkhangulovo,100,RU,1635628386,98,53.1031,57.4423,40.64,8.32
arraial do cabo,75,BR,1635628349,88,-22.9661,-42.0278,71.46,9.22
salinas,20,US,1635628234,73,36.6777,-121.6555,72.99,8.05
bintulu,100,MY,1635628386,89,3.1667,113.0333,77.38,3.51
asau,0,RO,1635628387,95,46.4333,26.4,40.95,1.25
lubango,95,AO,1635628387,61,-14.9172,13.4925,65.17,4.59
hwange,96,ZW,1635628387,51,-18.3693,26.5019,79.07,0.96
bastia,90,FR,1635628388,86,42.6667,9.3333,65.3,8.05
port keats,72,AU,1635628388,79,-14.25,129.55,80.69,2.64
berlevag,97,NO,1635628388,72,70.8578,29.0864,38.89,4.36
praia,0,CV,1635628135,83,14.9215,-23.5087,77.54,10.36
fortuna,20,US,1635628349,67,40.5982,-124.1573,64.36,1.99
vardo,94,NO,1635628389,74,70.3705,31.1107,38.75,7.7
coquimbo,20,CL,1635628389,77,-29.9533,-71.3436,60.53,8.05
bibiani,92,GH,1635628390,93,6.4635,-2.3194,73.4,1.63
sokolo,61,ML,1635628390,24,14.7328,-6.1219,88.72,6.02
wewak,53,PG,1635628249,83,-3.5534,143.6268,80.26,3.22
brownsville,1,US,1635628274,33,25.9018,-97.4975,88.02,4.0
doha,0,QA,1635628390,76,25.2867,51.5333,80.58,2.3
touros,66,BR,1635628149,77,-5.1989,-35.4608,81.5,18.03
riosucio,91,CO,1635628391,90,5.4216,-75.7032,66.42,2.64
marsa matruh,16,EG,1635628391,72,31.3525,27.2453,72.82,9.82
samarinda,97,ID,1635628144,98,-0.5,117.15,72.5,0.81
clyde river,100,CA,1635628392,97,70.4692,-68.5914,30.43,13.53
cabedelo,5,BR,1635628392,71,-6.9811,-34.8339,79.47,16.2
nuuk,75,GL,1635628392,86,64.1835,-51.7216,34.41,32.21
salinopolis,18,BR,1635628392,84,-0.6136,-47.3561,79.7,7.11
adrar,100,MR,1635628393,21,20.5022,-10.0711,82.53,15.97
burnie,100,AU,1635628393,84,-41.0667,145.9167,51.94,11.9
cap malheureux,6,MU,1635628393,84,-19.9842,57.6142,71.47,1.99
kasamwa,41,TZ,1635628394,78,-2.85,32.4333,68.52,4.88
kavieng,50,PG,1635628394,77,-2.5744,150.7967,82.65,12.86
amguri,98,IN,1635628394,86,26.8,94.5333,68.56,3.22
tezu,38,IN,1635628395,49,27.9167,96.1667,66.99,3.36
vanimo,95,PG,1635628395,89,-2.6741,141.3028,77.77,4.34
gravelbourg,81,CA,1635628396,36,49.8834,-106.5512,39.83,16.22
saint-georges,20,GD,1635628271,70,12.0564,-61.7485,83.88,13.8
omboue,100,GA,1635628396,91,-1.5746,9.2618,76.75,6.02
pevek,100,RU,1635628396,96,69.7008,170.3133,-3.24,10.49
sal rei,100,CV,1635628397,77,16.1833,-22.9167,79.36,17.74
iqaluit,100,CA,1635628257,64,63.7506,-68.5145,36.7,15.99
angoram,79,PG,1635628397,98,-4.0625,144.0661,75.72,1.92
meulaboh,100,ID,1635628262,88,4.1363,96.1285,75.47,4.41
central point,75,US,1635628397,80,42.376,-122.9164,64.17,0.0
mount gambier,17,AU,1635628398,85,-37.8333,140.7667,45.79,4.63
arman,100,RU,1635628398,57,59.7,150.1667,21.58,11.9
upernavik,100,GL,1635628398,57,72.7868,-56.1549,27.01,6.51
gazanjyk,66,TM,1635628399,51,39.2446,55.5154,55.13,8.84
alofi,100,NU,1635628399,74,-19.0595,-169.9187,76.44,16.11
pochutla,49,MX,1635628400,65,15.7432,-96.4661,85.05,7.09
buala,88,SB,1635628169,76,-8.145,159.5921,82.71,9.98
trindade,99,BR,1635628229,85,-16.6494,-49.4889,76.75,9.42
bay roberts,0,CA,1635628400,85,47.5999,-53.2648,44.44,1.01
todos santos,9,MX,1635628401,76,23.45,-110.2167,89.01,10.8
monrovia,100,LR,1635628109,87,6.3005,-10.7969,76.77,5.21
ust-tsilma,100,RU,1635628401,96,65.441,52.1498,22.12,5.08
solec kujawski,0,PL,1635628401,60,53.0837,18.2257,52.88,3.0
akyab,60,MM,1635628402,81,20.15,92.9,78.03,4.25
los llanos de aridane,0,ES,1635628402,75,28.6585,-17.9182,65.95,4.0
kochi,100,IN,1635628402,90,9.9399,76.2602,76.98,3.98
bon accord,0,CA,1635628403,49,53.8335,-113.4187,41.88,14.38
chicama,27,PE,1635628403,66,-7.8447,-79.1469,63.14,9.15
taoudenni,1,ML,1635628403,25,22.6783,-3.9836,87.01,6.82
guerrero negro,0,MX,1635628404,51,27.9769,-114.0611,75.4,11.5
glace bay,75,CA,1635628404,84,46.1969,-59.957,49.59,4.0
bejar,100,ES,1635628404,97,40.3864,-5.7634,54.57,3.4
basco,85,PH,1635628405,69,20.4487,121.9702,80.89,16.06
hirado,1,JP,1635628405,72,33.3597,129.5531,61.36,14.88
muros,100,ES,1635628192,89,42.7762,-9.0603,64.24,12.73
ziro,45,IN,1635628405,87,27.6333,93.8333,45.18,2.44
rocha,100,UY,1635628406,80,-34.4833,-54.3333,70.21,9.53
pontianak,90,ID,1635628406,94,-0.0333,109.3333,78.78,2.3
tevaitoa,8,PF,1635628406,70,-16.7833,-151.5,77.65,16.49
talnakh,100,RU,1635628264,96,69.4865,88.3972,13.21,4.88
nouadhibou,2,MR,1635628257,83,20.931,-17.0347,68.31,18.5
dolores,0,AR,1635628407,65,-36.3132,-57.6792,76.24,10.85
atasu,100,KZ,1635628407,64,48.6814,71.6433,38.48,14.67
lorengau,89,PG,1635628408,79,-2.0226,147.2712,82.44,6.8
guilin,100,CN,1635628353,91,25.2819,110.2864,62.49,2.75
korla,42,CN,1635628408,34,41.7597,86.1469,47.64,1.07
okhotsk,3,RU,1635628347,71,59.3833,143.3,10.49,21.65
saldanha,37,ZA,1635628409,88,-33.0117,17.9442,61.32,11.74
changtu,70,CN,1635628409,67,42.7788,124.0955,39.58,8.86
usinsk,100,RU,1635628409,92,65.9939,57.5281,9.46,8.7
mananjary,89,MG,1635628410,88,-21.2167,48.3333,70.81,6.11
te anau,100,NZ,1635628410,94,-45.4167,167.7167,47.35,4.14
axim,72,GH,1635628411,86,4.8699,-2.2405,78.67,7.81
stolin,28,BY,1635628411,67,51.8912,26.846,47.35,11.88
faanui,15,PF,1635628412,69,-16.4833,-151.75,78.13,16.46
tagusao,52,PH,1635628412,83,9.1924,117.8141,79.48,3.44
afua,78,BR,1635628412,84,-0.1567,-50.3867,79.25,3.67
sambava,79,MG,1635628413,87,-14.2667,50.1667,74.43,7.87
shingu,82,JP,1635628413,81,33.7333,135.9833,60.06,5.82
odesskoye,100,RU,1635628414,97,54.2111,72.9651,34.03,17.34
zemio,65,CF,1635628414,93,5.0314,25.1361,71.01,3.29
san quintin,0,MX,1635628414,69,30.4833,-115.95,69.17,13.09
pecos,1,US,1635628414,10,31.4229,-103.4932,87.89,17.27
gizo,67,SB,1635628415,74,-8.103,156.8419,83.25,6.85
mehriz,3,IR,1635628415,31,31.5917,54.4318,55.9,3.98
cairns,56,AU,1635628415,83,-16.9167,145.7667,78.75,3.44
saint-francois,90,FR,1635628416,77,46.4154,3.9054,58.44,4.61
miguel hidalgo,40,MX,1635628416,21,19.4225,-99.2028,72.81,3.0
eseka,100,CM,1635628416,99,3.65,10.7667,72.37,1.3
mehamn,92,NO,1635628417,76,71.0357,27.8492,38.7,6.33
beatrice,1,US,1635628417,30,40.2681,-96.747,72.45,11.5
tieli,96,CN,1635628417,47,46.95,128.05,32.77,5.64
shinshiro,84,JP,1635628418,78,34.9,137.5,60.17,5.01
boa vista,40,BR,1635628418,43,2.8197,-60.6733,93.18,9.22
ladario,20,BR,1635628418,83,-19.0047,-57.6017,77.29,4.61
arroyo,0,ES,1635628419,84,41.6096,-4.7969,59.18,5.75
palmer,90,US,1635628419,84,42.1584,-72.3287,59.52,1.01
beirut,0,LB,1635628420,60,33.8889,35.4944,72.34,4.61
marathon,1,US,1635628420,65,44.9,-89.7668,61.0,4.61
kismayo,8,SO,1635628420,84,-0.3582,42.5454,78.53,11.5
san carlos de bariloche,0,AR,1635628420,18,-41.1456,-71.3082,64.44,17.27
sterling,75,US,1635628421,78,39.0062,-77.4286,63.41,7.0
fort nelson,7,CA,1635628421,32,58.8053,-122.7002,41.83,3.29
saint-pierre,0,RE,1635628422,78,-21.3393,55.4781,71.24,6.91
puerto quijarro,40,BO,1635628270,31,-17.7833,-57.7667,97.86,4.09
birao,98,CF,1635628422,27,10.2849,22.7882,78.51,1.59
merzifon,0,TR,1635628422,87,40.8733,35.4631,38.66,4.61
salalah,0,OM,1635628423,65,17.0151,54.0924,78.89,4.61
kloulklubed,100,PW,1635628423,78,7.0419,134.2556,79.3,16.98
baglung,84,NP,1635628423,93,28.2719,83.5898,59.9,0.96
alyangula,63,AU,1635628424,78,-13.8483,136.4192,81.0,5.14
angoche,3,MZ,1635628424,73,-16.2325,39.9086,74.59,8.68
vyartsilya,85,RU,1635628424,97,62.1764,30.693,40.33,6.2
cabra,100,ES,1635628425,88,37.4725,-4.4421,67.44,16.08
torbay,0,CA,1635628262,77,47.6666,-52.7314,43.68,8.93
pingzhuang,100,CN,1635628425,95,42.0372,119.2889,35.76,8.57
tahoua,0,NE,1635628425,13,14.8888,5.2692,86.23,8.01
tapejara,100,BR,1635628426,83,-28.0681,-52.0139,67.39,8.68
jasper,1,US,1635628327,45,37.2001,-94.3502,65.01,1.99
tuatapere,100,NZ,1635628426,95,-46.1333,167.6833,49.62,16.4
guiratinga,96,BR,1635628427,46,-16.3494,-53.7583,87.58,3.42
lagoa,100,PT,1635628427,91,39.05,-27.9833,69.46,21.47
ayan,0,RU,1635628427,51,56.45,138.1667,22.26,15.48
cangucu,76,BR,1635628428,78,-31.395,-52.6756,70.81,11.99
nizwa,1,OM,1635628428,31,22.9333,57.5333,75.52,2.44
hirara,30,JP,1635628428,74,24.8,125.2833,75.49,14.18
simplicio mendes,36,BR,1635628429,27,-7.8539,-41.9103,89.02,4.9
dingle,98,PH,1635628429,91,10.9995,122.6711,74.57,8.23
baarle-hertog,90,BE,1635628429,98,51.4041,4.8916,54.27,6.91
ismailia,76,EG,1635628429,73,30.6043,32.2723,71.04,6.96
phonhong,67,LA,1635628430,95,18.5007,102.4166,72.34,1.45
roebourne,0,AU,1635628430,72,-20.7833,117.1333,71.37,3.29
verkhoyansk,53,RU,1635628431,100,67.5447,133.385,-14.31,2.46
rudnichnyy,89,RU,1635628431,99,59.617,52.4703,29.28,3.31
frontignan,98,FR,1635628432,98,43.4485,3.754,66.06,20.36
sept-iles,43,CA,1635628282,88,50.2001,-66.3821,46.06,1.01
isangel,0,VU,1635628432,70,-19.55,169.2667,79.07,4.54
vostok,100,RU,1635628433,83,46.4856,135.8833,32.95,1.16
general roca,100,AR,1635628433,19,-39.0333,-67.5833,70.2,17.38
mahanoro,84,MG,1635628433,87,-19.9,48.8,71.1,4.18
tremedal,98,BR,1635628273,55,-14.9758,-41.4108,79.12,6.87
gat,57,IL,1635628434,61,31.61,34.7642,72.39,2.95
nova gradiska,0,HR,1635628434,81,45.255,17.3831,42.03,1.92
dayong,88,CN,1635628435,87,25.0209,118.2898,70.9,2.39
moyale,88,KE,1635628435,63,3.5167,39.0584,69.28,5.75
matara,62,LK,1635628435,91,5.9485,80.5353,76.33,3.74
tigzirt,86,DZ,1635628436,50,36.8886,4.1198,69.8,8.19
presidencia roque saenz pena,62,AR,1635628436,38,-26.7852,-60.4388,91.47,7.25
pasni,2,PK,1635628436,41,25.2631,63.471,81.54,6.24
rauma,99,FI,1635628437,94,61.1272,21.5113,48.24,6.96
ilulissat,20,GL,1635628437,65,69.2167,-51.1,37.42,16.11
khuzdar,0,PK,1635628437,23,27.7384,66.6434,62.04,9.31
manzhouli,2,CN,1635628438,38,49.6,117.4333,23.56,2.15
coihaique,0,CL,1635628438,21,-45.5752,-72.0662,60.75,13.8
alice town,60,BS,1635628438,62,25.7167,-79.3,80.38,21.63
novobelokatay,100,RU,1635628439,99,55.7062,58.9549,38.21,12.26
kasaragod,100,IN,1635628439,92,12.5,75.0,78.06,4.03
derzhavinsk,100,KZ,1635628439,76,51.1,66.3167,40.96,22.84
split,0,HR,1635628440,76,43.5089,16.4392,55.51,1.14
quatre cocos,38,MU,1635628440,78,-20.2078,57.7625,71.1,7.27
hatillo,72,PR,1635628440,78,18.4863,-66.8254,85.78,1.01
moramanga,100,MG,1635628441,95,-18.9333,48.2,63.03,0.87
yumen,47,CN,1635628441,47,40.2833,97.2,36.95,6.13
grindavik,0,IS,1635628442,93,63.8424,-22.4338,37.87,8.05
norilsk,100,RU,1635628442,96,69.3535,88.2027,13.64,3.24
maputo,100,MZ,1635628443,85,-25.9653,32.5892,64.22,7.0
sabha,3,LY,1635628183,27,27.0377,14.4283,70.45,3.51
yenagoa,100,NG,1635628444,94,4.9247,6.2642,76.95,3.65
saint anthony,1,US,1635628445,54,45.0205,-93.218,61.18,1.01
cihuatlan,0,MX,1635628445,63,19.2366,-104.5651,86.2,6.82
qui nhon,46,VN,1635628183,91,13.7667,109.2333,75.43,6.06
gazojak,94,TM,1635628445,39,41.1875,61.4036,47.98,8.93
hambantota,79,LK,1635628446,84,6.1241,81.1185,78.51,3.11
thaba nchu,0,ZA,1635628446,46,-29.2093,26.839,55.06,5.97
mayskiy,0,RU,1635628447,66,47.6931,40.1025,42.21,6.55
atambua,60,ID,1635628447,82,-9.1061,124.8925,75.58,1.72
puerto el triunfo,86,SV,1635628447,78,13.2833,-88.55,86.16,5.75
pacific grove,40,US,1635628347,84,36.6177,-121.9166,72.57,1.01
upata,99,VE,1635628448,93,8.0086,-62.3989,75.27,3.76
sikonge,97,TZ,1635628448,39,-5.6333,32.7667,78.37,4.12
mount isa,40,AU,1635628450,25,-20.7333,139.5,74.97,12.66
saint-augustin,4,CA,1635628450,57,51.226,-58.6502,45.72,5.32
mackay,4,AU,1635628451,80,-21.15,149.2,80.69,6.08
oltu,100,TR,1635628451,88,40.5498,42.0013,48.18,3.85
aksu,3,CN,1635628451,53,41.1231,80.2644,44.17,0.74
sisimiut,100,GL,1635628452,96,66.9395,-53.6735,35.33,39.62
saint-joseph,75,RE,1635628452,80,-21.3667,55.6167,70.16,2.93
port hedland,40,AU,1635628452,94,-20.3167,118.5667,68.05,6.91
waitati,51,NZ,1635628453,90,-45.75,170.5667,59.81,4.03
surab,0,PK,1635628453,31,28.4914,66.2585,51.67,10.69
avinurme,100,EE,1635628453,87,58.9822,26.8642,44.83,6.67
lakatoro,1,VU,1635628454,70,-16.0999,167.4164,81.46,8.48
ligatne,76,LV,1635628454,83,57.2343,25.0406,48.25,3.0
porto novo,100,BJ,1635628455,85,6.4965,2.6036,79.99,5.88
amahai,94,ID,1635628455,85,-3.3333,128.9167,78.03,3.04
sitka,75,US,1635628325,61,57.0531,-135.33,48.09,12.66
bahir dar,55,ET,1635628455,62,11.5936,37.3908,60.89,4.14
sioux lookout,90,CA,1635628195,87,50.1001,-91.917,44.67,8.05
pisco,0,PE,1635628456,77,-13.7,-76.2167,66.25,9.22
yulara,100,AU,1635628456,94,-25.2406,130.9889,57.04,8.05
evanston,75,US,1635628208,72,42.0411,-87.6901,61.65,4.0
antioquia,81,CO,1635628456,97,7.0,-75.5,57.11,1.86
ligayan,92,PH,1635628457,72,4.6533,119.4706,82.94,3.85
darhan,55,MN,1635628457,46,49.4867,105.9228,30.43,7.87
roald,0,NO,1635628457,76,62.5833,6.1333,53.65,5.75
samarai,99,PG,1635628276,79,-10.6167,150.6667,82.72,13.67
kawalu,100,ID,1635628458,96,-7.3817,108.2082,71.91,0.78
constantine,92,DZ,1635628458,44,36.365,6.6147,63.37,4.52
koindu,97,GN,1635628459,94,8.4386,-10.3253,70.68,0.85
natal,20,BR,1635628459,69,-5.795,-35.2094,81.25,12.66
verkhnyaya toyma,100,RU,1635628460,99,62.2349,44.9985,39.18,4.14
deputatskiy,99,RU,1635628460,98,69.3,139.9,-6.99,5.08
gurupa,97,BR,1635628460,91,-1.405,-51.64,75.34,3.62
paveh,100,IR,1635628461,58,35.0434,46.3565,58.1,9.08
mahibadhoo,74,MV,1635628461,72,3.7833,72.9667,82.47,13.49
santa isabel,100,BR,1635628461,93,-23.3156,-46.2214,69.1,8.77
kyshtovka,100,RU,1635628462,52,56.555,76.6271,27.57,9.19
baruun-urt,20,MN,1635628462,40,46.6806,113.2792,20.8,2.84
calatagan,16,PH,1635628463,76,13.8833,120.65,79.03,16.35
pinawa,79,CA,1635628463,65,50.1489,-95.8811,44.83,12.12
prainha,36,BR,1635628463,71,-1.8,-53.48,81.52,4.38
lyuban,36,BY,1635628464,66,52.7985,28.0048,44.98,11.39
makakilo city,20,US,1635628219,56,21.3469,-158.0858,83.95,4.61
dongsheng,0,CN,1635628464,51,39.8161,109.9776,30.07,9.13
waipawa,9,NZ,1635628318,51,-41.4122,175.5153,61.45,14.65
roma,90,US,1635628203,84,43.2128,-75.4557,56.66,9.22
port arthur,48,CN,1635628465,73,38.8,121.2667,50.22,2.26
sao joao de pirabas,19,BR,1635628465,85,-0.7747,-47.1772,78.64,4.85
maragogi,0,BR,1635628466,73,-9.0122,-35.2225,77.02,10.29
zhuzhou,96,CN,1635628466,81,27.8333,113.15,63.25,2.39
bouna,99,CI,1635628466,66,9.2667,-3.0,80.64,5.46
brae,100,GB,1635628467,94,60.3964,-1.353,48.11,3.78
sidi ali,68,DZ,1635628467,62,36.0998,0.4206,66.33,7.9
kota kinabalu,20,MY,1635628468,94,5.9749,116.0724,76.98,5.75
lagos,100,NG,1635628188,86,6.5833,3.75,79.03,4.99
vao,2,NC,1635628468,74,-22.6667,167.4833,70.9,5.61
miri,73,MY,1635628469,91,4.4148,114.0089,76.71,3.38
hualmay,88,PE,1635628469,73,-11.0964,-77.6139,66.94,7.43
sharjah,0,AE,1635628469,69,25.3573,55.4033,82.38,2.3
sistranda,100,NO,1635628470,80,63.7256,8.834,49.96,24.65
fonte boa,79,BR,1635628470,77,-2.4959,-66.2662,81.32,4.94
petropavlovsk-kamchatskiy,40,RU,1635628470,74,53.0452,158.6483,28.99,4.47
fare,3,PF,1635628471,70,-16.7,-151.0167,78.03,16.96
abu kamal,100,SY,1635628471,34,34.4506,40.9171,76.8,7.4
verona,75,IT,1635628397,93,45.4167,11.0333,55.02,3.44
nautla,19,MX,1635628471,55,20.2167,-96.7833,80.98,10.36
ternat,100,BE,1635628472,95,50.8667,4.1833,53.71,10.27
jacqueville,60,CI,1635628472,83,5.2052,-4.4146,80.51,10.8
port macquarie,100,AU,1635628472,76,-31.4333,152.9167,58.96,8.16
belaya gora,99,RU,1635628473,98,68.5333,146.4167,0.5,3.89
anadyr,100,RU,1635628473,84,64.75,177.4833,1.0,17.0
kualakapuas,74,ID,1635628473,97,-3.0091,114.3876,75.36,2.57
qasigiannguit,100,GL,1635628474,76,68.8193,-51.1922,37.65,12.3
lesozavodsk,100,RU,1635628474,66,45.4794,133.4244,36.73,5.57
cochrane,0,CA,1635628474,46,51.1834,-114.4687,38.21,1.9
general pico,100,AR,1635628475,39,-35.6566,-63.7568,77.76,24.34
makarov,100,RU,1635628475,91,48.6333,142.8,40.35,12.08
bilma,27,NE,1635628475,22,18.6853,12.9164,83.19,19.71
kon tum,45,VN,1635628208,97,14.35,108.0,66.13,2.86
olinda,40,BR,1635628476,61,-8.0089,-34.8553,80.33,9.22
kisesa,77,TZ,1635628476,52,-3.0833,34.15,73.99,10.4
henties bay,0,NA,1635628476,89,-22.116,14.2845,56.86,4.07
vila velha,75,BR,1635628192,94,-20.3297,-40.2925,71.55,11.5
baicheng,100,CN,1635628477,37,45.6167,122.8167,34.38,15.05
havelock,63,US,1635628477,69,34.8791,-76.9013,67.05,1.99
xai-xai,100,MZ,1635628477,90,-25.0519,33.6442,68.9,1.68
udachnyy,100,RU,1635628297,94,66.4167,112.4,19.29,12.08
caravelas,93,BR,1635628344,85,-17.7125,-39.2481,74.17,6.62
morrope,21,PE,1635628478,66,-6.5417,-80.0111,69.91,16.08
anchorage,90,US,1635628398,83,61.2181,-149.9003,46.33,5.99
olafsvik,73,IS,1635628478,90,64.8945,-23.7142,43.29,20.49
fuerte olimpo,97,PY,1635628479,58,-21.0415,-57.8738,84.52,7.67
le vauclin,20,MQ,1635628479,65,14.5452,-60.8388,84.25,13.8
barcelona,20,ES,1635628452,87,41.3888,2.159,67.53,1.01
carutapera,35,BR,1635628479,82,-1.195,-46.02,78.89,5.61
mulchen,100,CL,1635628479,36,-37.7167,-72.2333,73.26,5.84
enshi,90,CN,1635628480,89,30.3,109.4833,57.42,0.38
aasiaat,100,GL,1635628480,96,68.7098,-52.8699,27.28,9.55
kudahuvadhoo,19,MV,1635628480,76,2.6708,72.8944,82.22,15.88
beian,0,NO,1635628481,71,63.6559,9.5683,50.67,19.57
kununurra,95,AU,1635628481,69,-15.7667,128.7333,82.38,8.05
gayny,100,RU,1635628481,92,60.3071,54.3241,33.51,4.43
jocon,100,HN,1635628482,91,15.2833,-86.9667,70.5,2.64
ihosy,53,MG,1635628482,86,-22.4,46.1167,63.95,5.99
hornepayne,8,CA,1635628482,56,49.2138,-84.7705,51.12,2.28
krasnoarmeysk,0,RU,1635628483,77,51.0239,45.6969,43.16,8.5
ambovombe,23,MG,1635628431,80,-25.1667,46.0833,67.53,10.18
mandera,77,KE,1635628483,44,3.9366,41.867,85.6,6.8
katangli,77,RU,1635628483,78,51.7102,143.2326,26.4,9.24
kholm,66,RU,1635628484,91,59.2667,32.85,46.81,9.93
djibo,18,BF,1635628484,15,14.1022,-1.6306,91.85,8.57
college,90,US,1635628484,62,64.8569,-147.8028,41.32,5.75
shahr-e kord,94,IR,1635628485,46,32.3256,50.8644,50.5,2.55
sibolga,100,ID,1635628485,88,1.7427,98.7792,76.44,2.55
tulun,100,RU,1635628485,73,54.5611,100.5792,34.03,2.77
scarborough,9,GB,1635628295,85,54.2797,-0.4044,48.07,8.01
messina,90,IT,1635628486,84,38.1933,15.5497,65.44,1.01
chokurdakh,100,RU,1635628486,97,70.6333,147.9167,1.13,5.77
jinchang,0,CN,1635628487,43,38.4953,102.1739,40.26,3.24
tres picos,23,MX,1635628487,57,15.8667,-93.5333,86.0,2.04
charagua,58,BO,1635628487,48,-19.8,-63.2167,84.24,4.61
haikou,45,CN,1635628488,89,20.0458,110.3417,74.8,11.16
nizhnevartovsk,0,RU,1635628488,92,60.9344,76.5531,10.42,4.47
filadelfia,75,US,1635628208,74,39.9523,-75.1638,66.09,1.01
ceres,1,US,1635628302,67,37.5949,-120.9577,77.18,3.44
navahrudak,11,BY,1635628489,68,53.6,25.8333,46.04,12.68
rudnya,12,RU,1635628489,76,54.947,31.0934,44.38,11.16
karratha,0,AU,1635628489,70,-20.7377,116.8463,72.07,4.85
luganville,6,VU,1635628490,69,-15.5333,167.1667,82.27,7.92
izazi,64,TZ,1635628490,61,-7.2,35.7333,77.18,5.14
sao joao da barra,100,BR,1635628490,89,-21.6403,-41.0511,71.69,12.08
taywarah,4,AF,1635628491,31,33.35,64.4167,36.45,4.36
mayumba,97,GA,1635628491,90,-3.432,10.6554,77.54,7.47
isoka,97,ZM,1635628492,44,-10.1606,32.6335,71.2,3.42
lebowakgomo,47,ZA,1635628492,37,-24.2,29.5,50.45,5.95
dutlwe,0,BW,1635628276,18,-23.9833,23.9,72.16,12.3
marzuq,95,YE,1635628492,56,14.4,46.4667,74.26,3.87
lokoja,40,NG,1635628493,73,7.8024,6.743,78.69,2.19
rockland,84,US,1635628493,83,41.1668,-74.0496,61.65,1.99
iskateley,100,RU,1635628493,91,67.6803,53.1512,17.38,12.37
